{
"type": "FeatureCollection",
"name": "country_name",
"crs": { "type": "name", "properties": { "name": "urn:ogc:def:crs:OGC:1.3:CRS84" } },
"features": [
{ "type": "Feature", "properties": { "Name": "瓜德罗普(法)" }, "geometry": { "type": "Point", "coordinates": [ -61.714831370951927, 15.992751833362121 ] } },
{ "type": "Feature", "properties": { "Name": "特克斯和凯科斯群岛(英)" }, "geometry": { "type": "Point", "coordinates": [ -61.367251178884182, 10.171805956082769 ] } },
{ "type": "Feature", "properties": { "Name": "克利佩尔顿岛(法)" }, "geometry": { "type": "Point", "coordinates": [ -109.225633884168005, 10.30824972673533 ] } },
{ "type": "Feature", "properties": { "Name": "开曼群岛(英)" }, "geometry": { "type": "Point", "coordinates": [ -81.375778859277474, 19.262334541773459 ] } },
{ "type": "Feature", "properties": { "Name": "荷兰安的列斯群岛(荷)" }, "geometry": { "type": "Point", "coordinates": [ -68.924333963400272, 12.06982777564833 ] } },
{ "type": "Feature", "properties": { "Name": "阿鲁巴(荷)" }, "geometry": { "type": "Point", "coordinates": [ -69.998038129917177, 12.38984869589193 ] } },
{ "type": "Feature", "properties": { "Name": "巴巴多斯" }, "geometry": { "type": "Point", "coordinates": [ -59.611755472887353, 13.074523023757539 ] } },
{ "type": "Feature", "properties": { "Name": "格林纳达" }, "geometry": { "type": "Point", "coordinates": [ -61.742242113897298, 12.069757850246351 ] } },
{ "type": "Feature", "properties": { "Name": "圣文森特和格林纳丁斯" }, "geometry": { "type": "Point", "coordinates": [ -61.261035894096601, 13.18576217665902 ] } },
{ "type": "Feature", "properties": { "Name": "圣卢西亚岛" }, "geometry": { "type": "Point", "coordinates": [ -60.98288992143317, 13.98739787651434 ] } },
{ "type": "Feature", "properties": { "Name": "马提尼克岛(法)" }, "geometry": { "type": "Point", "coordinates": [ -61.061670880545009, 14.61620106864857 ] } },
{ "type": "Feature", "properties": { "Name": "多米尼加" }, "geometry": { "type": "Point", "coordinates": [ -61.397549445753128, 15.28360931888078 ] } },
{ "type": "Feature", "properties": { "Name": "蒙特塞拉特岛(英)" }, "geometry": { "type": "Point", "coordinates": [ -62.202738474334367, 16.67400799003536 ] } },
{ "type": "Feature", "properties": { "Name": "安提瓜岛和巴布达岛(英)" }, "geometry": { "type": "Point", "coordinates": [ -61.85042714568263, 17.109700693403681 ] } },
{ "type": "Feature", "properties": { "Name": "圣基茨和尼维斯" }, "geometry": { "type": "Point", "coordinates": [ -62.72084564678984, 17.257227995413899 ] } },
{ "type": "Feature", "properties": { "Name": "安圭拉岛(英)" }, "geometry": { "type": "Point", "coordinates": [ -63.068800640709981, 18.213441364119689 ] } },
{ "type": "Feature", "properties": { "Name": "英属维尔京群岛(英）" }, "geometry": { "type": "Point", "coordinates": [ -64.62362527820774, 18.425442572050802 ] } },
{ "type": "Feature", "properties": { "Name": "美属维尔京群岛（美）" }, "geometry": { "type": "Point", "coordinates": [ -64.9329051923701, 18.352572023517251 ] } },
{ "type": "Feature", "properties": { "Name": "波多黎各（美）" }, "geometry": { "type": "Point", "coordinates": [ -66.816392706763395, 18.064992606745442 ] } },
{ "type": "Feature", "properties": { "Name": "多米尼加" }, "geometry": { "type": "Point", "coordinates": [ -71.06569328999791, 18.889283357096851 ] } },
{ "type": "Feature", "properties": { "Name": "纳瓦萨岛(美)" }, "geometry": { "type": "Point", "coordinates": [ -75.022503364383383, 18.370237137156121 ] } },
{ "type": "Feature", "properties": { "Name": "海地" }, "geometry": { "type": "Point", "coordinates": [ -72.627900254554604, 18.86794444275975 ] } },
{ "type": "Feature", "properties": { "Name": "牙买加" }, "geometry": { "type": "Point", "coordinates": [ -76.790458279787202, 17.926551693287539 ] } },
{ "type": "Feature", "properties": { "Name": "巴拿马" }, "geometry": { "type": "Point", "coordinates": [ -81.340201136151862, 8.429228643834218 ] } },
{ "type": "Feature", "properties": { "Name": "哥斯达黎加" }, "geometry": { "type": "Point", "coordinates": [ -84.072501586109709, 9.815209213782168 ] } },
{ "type": "Feature", "properties": { "Name": "圣萨尔瓦多" }, "geometry": { "type": "Point", "coordinates": [ -89.194546945142093, 13.683249211661551 ] } },
{ "type": "Feature", "properties": { "Name": "尼加拉瓜" }, "geometry": { "type": "Point", "coordinates": [ -86.190034826201327, 11.92951381007404 ] } },
{ "type": "Feature", "properties": { "Name": "洪都拉斯" }, "geometry": { "type": "Point", "coordinates": [ -86.987117670747239, 14.388458002940171 ] } },
{ "type": "Feature", "properties": { "Name": "伯利兹" }, "geometry": { "type": "Point", "coordinates": [ -88.738445251927644, 17.115373502683031 ] } },
{ "type": "Feature", "properties": { "Name": "特克斯和凯科斯群岛（英）" }, "geometry": { "type": "Point", "coordinates": [ -71.090894293288102, 21.499996956936499 ] } },
{ "type": "Feature", "properties": { "Name": "古巴" }, "geometry": { "type": "Point", "coordinates": [ -78.250213476343276, 21.181037738852059 ] } },
{ "type": "Feature", "properties": { "Name": "巴哈马" }, "geometry": { "type": "Point", "coordinates": [ -77.393701834361195, 24.84050538988825 ] } },
{ "type": "Feature", "properties": { "Name": "墨西哥" }, "geometry": { "type": "Point", "coordinates": [ -102.273870674727107, 20.605604885169651 ] } },
{ "type": "Feature", "properties": { "Name": "美国" }, "geometry": { "type": "Point", "coordinates": [ -100.101194734492097, 38.458183550803113 ] } },
{ "type": "Feature", "properties": { "Name": "危地马拉" }, "geometry": { "type": "Point", "coordinates": [ -90.549728185847613, 14.44556199236707 ] } },
{ "type": "Feature", "properties": { "Name": "加拿大" }, "geometry": { "type": "Point", "coordinates": [ -106.678015166203906, 55.94940205348874 ] } },
{ "type": "Feature", "properties": { "Name": "格陵兰(丹)" }, "geometry": { "type": "Point", "coordinates": [ -42.217354026033092, 71.485270803585664 ] } },
{ "type": "Feature", "properties": { "Name": "北马里亚纳群岛(美)" }, "geometry": { "type": "Point", "coordinates": [ 145.794434820499987, 15.10147250314543 ] } },
{ "type": "Feature", "properties": { "Name": "关岛(美)" }, "geometry": { "type": "Point", "coordinates": [ 144.774865816706296, 13.41641583783327 ] } },
{ "type": "Feature", "properties": { "Name": "亚什摩及卡地尔群岛(奥)" }, "geometry": { "type": "Point", "coordinates": [ 123.069957937704004, -12.286387176366061 ] } },
{ "type": "Feature", "properties": { "Name": "珊瑚海群岛(奥)" }, "geometry": { "type": "Point", "coordinates": [ 151.141804593768313, -17.807036225419239 ] } },
{ "type": "Feature", "properties": { "Name": "赫德岛和麦克唐纳群岛(奥)" }, "geometry": { "type": "Point", "coordinates": [ 73.648895883804897, -53.135160142246981 ] } },
{ "type": "Feature", "properties": { "Name": "法属南方和南极地区(法)" }, "geometry": { "type": "Point", "coordinates": [ 69.501934261897787, -49.21855161728994 ] } },
{ "type": "Feature", "properties": { "Name": "科科斯（基林）群岛(奥)" }, "geometry": { "type": "Point", "coordinates": [ 96.830169829658274, -12.15791049664773 ] } },
{ "type": "Feature", "properties": { "Name": "圣诞岛(奥)" }, "geometry": { "type": "Point", "coordinates": [ 105.662946233683499, -10.465679919784749 ] } },
{ "type": "Feature", "properties": { "Name": "美属萨摩亚(美)" }, "geometry": { "type": "Point", "coordinates": [ -170.666312101041711, -14.28860054747947 ] } },
{ "type": "Feature", "properties": { "Name": "皮特凯恩群岛(英)" }, "geometry": { "type": "Point", "coordinates": [ -130.127731013101197, -25.19811010746243 ] } },
{ "type": "Feature", "properties": { "Name": "帕迈拉环礁(美)" }, "geometry": { "type": "Point", "coordinates": [ -162.027964225900007, 5.770208742434396 ] } },
{ "type": "Feature", "properties": { "Name": "金曼礁(美)" }, "geometry": { "type": "Point", "coordinates": [ -162.615201071978191, 6.458592230413959 ] } },
{ "type": "Feature", "properties": { "Name": "约翰斯顿岛(美)" }, "geometry": { "type": "Point", "coordinates": [ -169.566433694972005, 16.61075007074902 ] } },
{ "type": "Feature", "properties": { "Name": "贾维斯岛(美)" }, "geometry": { "type": "Point", "coordinates": [ -159.99843886297279, -0.637708275082187 ] } },
{ "type": "Feature", "properties": { "Name": "贝克岛(美)" }, "geometry": { "type": "Point", "coordinates": [ -176.451920787439093, -0.006047512280457 ] } },
{ "type": "Feature", "properties": { "Name": "瓦利斯和富图纳(法)" }, "geometry": { "type": "Point", "coordinates": [ -176.160114086172598, -13.388401222039789 ] } },
{ "type": "Feature", "properties": { "Name": "中途岛(美)" }, "geometry": { "type": "Point", "coordinates": [ -171.649905217574513, 25.637621236593169 ] } },
{ "type": "Feature", "properties": { "Name": "威克岛(美)" }, "geometry": { "type": "Point", "coordinates": [ 166.723143595148713, 19.30738926187831 ] } },
{ "type": "Feature", "properties": { "Name": "诺福克岛(奥)" }, "geometry": { "type": "Point", "coordinates": [ 168.0235841097697, -29.098034599759679 ] } },
{ "type": "Feature", "properties": { "Name": "汤加" }, "geometry": { "type": "Point", "coordinates": [ -175.183512521371114, -21.343794296884489 ] } },
{ "type": "Feature", "properties": { "Name": "密克罗尼西亚" }, "geometry": { "type": "Point", "coordinates": [ 158.258329004027303, 6.786381093278767 ] } },
{ "type": "Feature", "properties": { "Name": "法属玻利尼西亚(法)" }, "geometry": { "type": "Point", "coordinates": [ -149.539511342839802, -17.705717498154261 ] } },
{ "type": "Feature", "properties": { "Name": "库克(新)" }, "geometry": { "type": "Point", "coordinates": [ -159.715340856653597, -21.13303459844056 ] } },
{ "type": "Feature", "properties": { "Name": "纽埃(新)" }, "geometry": { "type": "Point", "coordinates": [ -169.858571711940812, -19.12718338956185 ] } },
{ "type": "Feature", "properties": { "Name": "托克劳(新)" }, "geometry": { "type": "Point", "coordinates": [ -171.7745893109321, -9.175487670103234 ] } },
{ "type": "Feature", "properties": { "Name": "图瓦卢" }, "geometry": { "type": "Point", "coordinates": [ 178.6733368183408, -7.418251312900012 ] } },
{ "type": "Feature", "properties": { "Name": "所罗门群岛" }, "geometry": { "type": "Point", "coordinates": [ 159.992453775213392, -9.648152555188025 ] } },
{ "type": "Feature", "properties": { "Name": "新喀里多尼亚(法)" }, "geometry": { "type": "Point", "coordinates": [ 165.174692752796091, -21.242236796704962 ] } },
{ "type": "Feature", "properties": { "Name": "马绍尔群岛" }, "geometry": { "type": "Point", "coordinates": [ 171.261286116059608, 7.049232807106012 ] } },
{ "type": "Feature", "properties": { "Name": "基里巴斯" }, "geometry": { "type": "Point", "coordinates": [ -157.40925913793609, 1.949685912523644 ] } },
{ "type": "Feature", "properties": { "Name": "萨摩亚" }, "geometry": { "type": "Point", "coordinates": [ -171.73148493613121, -13.839318611106201 ] } },
{ "type": "Feature", "properties": { "Name": "帕劳" }, "geometry": { "type": "Point", "coordinates": [ 134.684692739102104, 7.51639069166942 ] } },
{ "type": "Feature", "properties": { "Name": "瑙鲁" }, "geometry": { "type": "Point", "coordinates": [ 166.928766496969814, -0.536195157998624 ] } },
{ "type": "Feature", "properties": { "Name": "斐济" }, "geometry": { "type": "Point", "coordinates": [ 177.74917257076109, -17.977305407874791 ] } },
{ "type": "Feature", "properties": { "Name": "瓦努阿图" }, "geometry": { "type": "Point", "coordinates": [ 167.604840597012412, -16.489910165894401 ] } },
{ "type": "Feature", "properties": { "Name": "巴布亚新几内亚" }, "geometry": { "type": "Point", "coordinates": [ 141.932466424394306, -6.747119495436921 ] } },
{ "type": "Feature", "properties": { "Name": "新西兰" }, "geometry": { "type": "Point", "coordinates": [ 169.844825954006609, -44.08688445991352 ] } },
{ "type": "Feature", "properties": { "Name": "澳大利亚" }, "geometry": { "type": "Point", "coordinates": [ 132.692990879689489, -25.961750174106768 ] } },
{ "type": "Feature", "properties": { "Name": "圣赫勒拿岛" }, "geometry": { "type": "Point", "coordinates": [ -5.632844517605506, -15.92979960654332 ] } },
{ "type": "Feature", "properties": { "Name": "圣多美和普林西比" }, "geometry": { "type": "Point", "coordinates": [ 6.710687864036318, 0.236399893857145 ] } },
{ "type": "Feature", "properties": { "Name": "佛得角" }, "geometry": { "type": "Point", "coordinates": [ -23.416233761458368, 15.005673854631491 ] } },
{ "type": "Feature", "properties": { "Name": "英属印度洋领地" }, "geometry": { "type": "Point", "coordinates": [ 72.486363885050935, -7.317222233605162 ] } },
{ "type": "Feature", "properties": { "Name": "欧罗巴岛" }, "geometry": { "type": "Point", "coordinates": [ 40.36357223574413, -22.47801819521375 ] } },
{ "type": "Feature", "properties": { "Name": "胡安德诺瓦群岛" }, "geometry": { "type": "Point", "coordinates": [ 42.73019211340565, -17.081705607109519 ] } },
{ "type": "Feature", "properties": { "Name": "巴萨斯达印度" }, "geometry": { "type": "Point", "coordinates": [ 39.691380851174841, -21.488823463508432 ] } },
{ "type": "Feature", "properties": { "Name": "格洛里厄斯" }, "geometry": { "type": "Point", "coordinates": [ 47.289322361017419, -11.56453612011626 ] } },
{ "type": "Feature", "properties": { "Name": "马尔代夫" }, "geometry": { "type": "Point", "coordinates": [ 73.462972510480029, -0.241542238651662 ] } },
{ "type": "Feature", "properties": { "Name": "特罗姆林" }, "geometry": { "type": "Point", "coordinates": [ 54.521399579955727, -15.890026811254829 ] } },
{ "type": "Feature", "properties": { "Name": "塞舌尔" }, "geometry": { "type": "Point", "coordinates": [ 55.451717562785632, -4.684453645719272 ] } },
{ "type": "Feature", "properties": { "Name": "马约特" }, "geometry": { "type": "Point", "coordinates": [ 45.132984564059477, -12.873869983341431 ] } },
{ "type": "Feature", "properties": { "Name": "科摩罗" }, "geometry": { "type": "Point", "coordinates": [ 43.333574929613121, -11.584050711005061 ] } },
{ "type": "Feature", "properties": { "Name": "留尼汪岛" }, "geometry": { "type": "Point", "coordinates": [ 55.531365869325199, -21.05617997239942 ] } },
{ "type": "Feature", "properties": { "Name": "毛里求斯" }, "geometry": { "type": "Point", "coordinates": [ 57.598600217079799, -20.191948944822169 ] } },
{ "type": "Feature", "properties": { "Name": "马达加斯加" }, "geometry": { "type": "Point", "coordinates": [ 45.715654700331868, -20.938668180588031 ] } },
{ "type": "Feature", "properties": { "Name": "斯威士兰" }, "geometry": { "type": "Point", "coordinates": [ 31.302122719297909, -26.72849614085828 ] } },
{ "type": "Feature", "properties": { "Name": "莱索托" }, "geometry": { "type": "Point", "coordinates": [ 28.142216848438348, -29.575210816471621 ] } },
{ "type": "Feature", "properties": { "Name": "南非" }, "geometry": { "type": "Point", "coordinates": [ 22.7921665408746, -30.89872482773222 ] } },
{ "type": "Feature", "properties": { "Name": "津巴布韦" }, "geometry": { "type": "Point", "coordinates": [ 29.864244483549001, -19.57607215517837 ] } },
{ "type": "Feature", "properties": { "Name": "博次瓦纳" }, "geometry": { "type": "Point", "coordinates": [ 23.05417920288933, -22.88370214525531 ] } },
{ "type": "Feature", "properties": { "Name": "纳米比亚" }, "geometry": { "type": "Point", "coordinates": [ 16.111628082940069, -21.569440864359681 ] } },
{ "type": "Feature", "properties": { "Name": "莫桑比克" }, "geometry": { "type": "Point", "coordinates": [ 33.525011622506028, -18.596226675726118 ] } },
{ "type": "Feature", "properties": { "Name": "安哥拉" }, "geometry": { "type": "Point", "coordinates": [ 17.303706383913781, -12.311996149695499 ] } },
{ "type": "Feature", "properties": { "Name": "赞比亚" }, "geometry": { "type": "Point", "coordinates": [ 25.582193971947511, -15.121037022138619 ] } },
{ "type": "Feature", "properties": { "Name": "马拉维" }, "geometry": { "type": "Point", "coordinates": [ 33.577069219818533, -13.11697035431501 ] } },
{ "type": "Feature", "properties": { "Name": "坦桑尼亚" }, "geometry": { "type": "Point", "coordinates": [ 34.317397253708819, -6.058727223777561 ] } },
{ "type": "Feature", "properties": { "Name": "肯尼亚" }, "geometry": { "type": "Point", "coordinates": [ 37.750344609480457, -0.440199659889338 ] } },
{ "type": "Feature", "properties": { "Name": "布隆迪" }, "geometry": { "type": "Point", "coordinates": [ 29.818354903925918, -3.831818001710289 ] } },
{ "type": "Feature", "properties": { "Name": "卢旺达" }, "geometry": { "type": "Point", "coordinates": [ 29.72935267144528, -2.098527012708109 ] } },
{ "type": "Feature", "properties": { "Name": "乌干达" }, "geometry": { "type": "Point", "coordinates": [ 32.1084298911682, 1.076313878309283 ] } },
{ "type": "Feature", "properties": { "Name": "刚果(民)" }, "geometry": { "type": "Point", "coordinates": [ 21.539680807788979, -2.876398569291553 ] } },
{ "type": "Feature", "properties": { "Name": "刚果" }, "geometry": { "type": "Point", "coordinates": [ 15.314535320215541, -1.065646401413257 ] } },
{ "type": "Feature", "properties": { "Name": "加蓬" }, "geometry": { "type": "Point", "coordinates": [ 11.01644662160302, -1.782645715566849 ] } },
{ "type": "Feature", "properties": { "Name": "赤道几内亚" }, "geometry": { "type": "Point", "coordinates": [ 10.227201904453031, 1.255727346557076 ] } },
{ "type": "Feature", "properties": { "Name": "喀麦隆" }, "geometry": { "type": "Point", "coordinates": [ 11.196846748780111, 4.432150521019512 ] } },
{ "type": "Feature", "properties": { "Name": "布基纳法索" }, "geometry": { "type": "Point", "coordinates": [ -2.842066056432087, 11.646817568468411 ] } },
{ "type": "Feature", "properties": { "Name": "利比里亚" }, "geometry": { "type": "Point", "coordinates": [ -9.694307697862072, 6.232329607609693 ] } },
{ "type": "Feature", "properties": { "Name": "塞拉利昂" }, "geometry": { "type": "Point", "coordinates": [ -12.348577740901209, 8.338138453109531 ] } },
{ "type": "Feature", "properties": { "Name": "几内亚比绍" }, "geometry": { "type": "Point", "coordinates": [ -15.648781884061631, 11.983452598855351 ] } },
{ "type": "Feature", "properties": { "Name": "冈比亚" }, "geometry": { "type": "Point", "coordinates": [ -16.063512379730678, 13.292309455990599 ] } },
{ "type": "Feature", "properties": { "Name": "塞内加尔" }, "geometry": { "type": "Point", "coordinates": [ -15.21512988099532, 13.971871526070419 ] } },
{ "type": "Feature", "properties": { "Name": "几内亚" }, "geometry": { "type": "Point", "coordinates": [ -10.10338799122062, 9.532642973431066 ] } },
{ "type": "Feature", "properties": { "Name": "科特迪瓦" }, "geometry": { "type": "Point", "coordinates": [ -5.007894071048909, 7.454667316960641 ] } },
{ "type": "Feature", "properties": { "Name": "加纳" }, "geometry": { "type": "Point", "coordinates": [ -1.578414777587909, 6.670324264517153 ] } },
{ "type": "Feature", "properties": { "Name": "多哥" }, "geometry": { "type": "Point", "coordinates": [ 1.085389763902526, 8.144751601143673 ] } },
{ "type": "Feature", "properties": { "Name": "贝宁" }, "geometry": { "type": "Point", "coordinates": [ 2.0583061496407, 9.696181774075235 ] } },
{ "type": "Feature", "properties": { "Name": "尼日利亚" }, "geometry": { "type": "Point", "coordinates": [ 7.963892065253718, 8.74325859531853 ] } },
{ "type": "Feature", "properties": { "Name": "中非" }, "geometry": { "type": "Point", "coordinates": [ 19.295256522797931, 5.953655502464495 ] } },
{ "type": "Feature", "properties": { "Name": "马里塔尼亚" }, "geometry": { "type": "Point", "coordinates": [ -11.880838641670231, 18.991791808692948 ] } },
{ "type": "Feature", "properties": { "Name": "马里" }, "geometry": { "type": "Point", "coordinates": [ -2.281632939578686, 16.94752632307916 ] } },
{ "type": "Feature", "properties": { "Name": "尼日尔" }, "geometry": { "type": "Point", "coordinates": [ 9.425624482392891, 16.722425649418881 ] } },
{ "type": "Feature", "properties": { "Name": "乍得" }, "geometry": { "type": "Point", "coordinates": [ 18.25138862887248, 14.656177511903829 ] } },
{ "type": "Feature", "properties": { "Name": "厄立特里亚" }, "geometry": { "type": "Point", "coordinates": [ 37.925088962867179, 15.50672056672863 ] } },
{ "type": "Feature", "properties": { "Name": "索马里" }, "geometry": { "type": "Point", "coordinates": [ 45.615396608739843, 3.940863644966153 ] } },
{ "type": "Feature", "properties": { "Name": "吉布提" }, "geometry": { "type": "Point", "coordinates": [ 42.644261495039878, 11.68274719485585 ] } },
{ "type": "Feature", "properties": { "Name": "埃塞俄比亚" }, "geometry": { "type": "Point", "coordinates": [ 38.321766656946778, 7.085890505747354 ] } },
{ "type": "Feature", "properties": { "Name": "苏丹" }, "geometry": { "type": "Point", "coordinates": [ 28.38610511673712, 13.577269270002541 ] } },
{ "type": "Feature", "properties": { "Name": "埃及" }, "geometry": { "type": "Point", "coordinates": [ 28.99005842855528, 26.067550500622328 ] } },
{ "type": "Feature", "properties": { "Name": "利比亚" }, "geometry": { "type": "Point", "coordinates": [ 17.78013202448447, 26.307232188711659 ] } },
{ "type": "Feature", "properties": { "Name": "马耳他" }, "geometry": { "type": "Point", "coordinates": [ 14.593884444029261, 35.814203229373838 ] } },
{ "type": "Feature", "properties": { "Name": "突尼斯" }, "geometry": { "type": "Point", "coordinates": [ 9.643637585318332, 33.241778269008407 ] } },
{ "type": "Feature", "properties": { "Name": "西撒哈拉" }, "geometry": { "type": "Point", "coordinates": [ -15.20420451667351, 23.591653486694931 ] } },
{ "type": "Feature", "properties": { "Name": "阿尔及利亚" }, "geometry": { "type": "Point", "coordinates": [ 1.486719283739618, 27.13458553523887 ] } },
{ "type": "Feature", "properties": { "Name": "摩洛哥" }, "geometry": { "type": "Point", "coordinates": [ -8.313249897903205, 31.03012905695773 ] } },
{ "type": "Feature", "properties": { "Name": "南乔治亚岛和南桑德韦奇岛" }, "geometry": { "type": "Point", "coordinates": [ -36.058071346947628, -54.786223012744962 ] } },
{ "type": "Feature", "properties": { "Name": "福克兰群岛 (马尔维纳斯)" }, "geometry": { "type": "Point", "coordinates": [ -57.781266049361861, -51.829983949332373 ] } },
{ "type": "Feature", "properties": { "Name": "乌拉圭" }, "geometry": { "type": "Point", "coordinates": [ -56.219939479270593, -33.015285648363772 ] } },
{ "type": "Feature", "properties": { "Name": "阿根廷" }, "geometry": { "type": "Point", "coordinates": [ -65.884514103036537, -35.855314731357531 ] } },
{ "type": "Feature", "properties": { "Name": "智利" }, "geometry": { "type": "Point", "coordinates": [ -71.20183940233072, -30.808807996736149 ] } },
{ "type": "Feature", "properties": { "Name": "巴拉圭" }, "geometry": { "type": "Point", "coordinates": [ -58.9265691998976, -23.953252176805439 ] } },
{ "type": "Feature", "properties": { "Name": "玻利维亚" }, "geometry": { "type": "Point", "coordinates": [ -63.950807666752382, -16.723904521988558 ] } },
{ "type": "Feature", "properties": { "Name": "秘鲁" }, "geometry": { "type": "Point", "coordinates": [ -75.293567455116204, -9.468655717642179 ] } },
{ "type": "Feature", "properties": { "Name": "巴西" }, "geometry": { "type": "Point", "coordinates": [ -53.144085567848293, -8.392414504181957 ] } },
{ "type": "Feature", "properties": { "Name": "厄瓜多尔" }, "geometry": { "type": "Point", "coordinates": [ -78.523119879683364, -2.092692970223508 ] } },
{ "type": "Feature", "properties": { "Name": "法属圭亚那" }, "geometry": { "type": "Point", "coordinates": [ -53.620376493464093, 2.937793214301173 ] } },
{ "type": "Feature", "properties": { "Name": "苏里南" }, "geometry": { "type": "Point", "coordinates": [ -56.265154761937012, 3.812357625929487 ] } },
{ "type": "Feature", "properties": { "Name": "圭亚那" }, "geometry": { "type": "Point", "coordinates": [ -59.490306651416752, 5.454069641778794 ] } },
{ "type": "Feature", "properties": { "Name": "哥伦比亚" }, "geometry": { "type": "Point", "coordinates": [ -73.413105628780414, 3.43280604034641 ] } },
{ "type": "Feature", "properties": { "Name": "委内瑞拉" }, "geometry": { "type": "Point", "coordinates": [ -66.355284339155986, 8.039031909150713 ] } },
{ "type": "Feature", "properties": { "Name": "斯瓦尔巴岛和扬马延岛(挪)" }, "geometry": { "type": "Point", "coordinates": [ -8.502728319081015, 70.957955629658201 ] } },
{ "type": "Feature", "properties": { "Name": "马恩岛" }, "geometry": { "type": "Point", "coordinates": [ -4.434683230762701, 53.96321177352263 ] } },
{ "type": "Feature", "properties": { "Name": "法罗群岛(丹)" }, "geometry": { "type": "Point", "coordinates": [ -6.698684795750539, 62.067333443936782 ] } },
{ "type": "Feature", "properties": { "Name": "保加利亚" }, "geometry": { "type": "Point", "coordinates": [ 24.316407862200631, 42.284894917127659 ] } },
{ "type": "Feature", "properties": { "Name": "匈牙利" }, "geometry": { "type": "Point", "coordinates": [ 19.20951973547632, 46.691796927806969 ] } },
{ "type": "Feature", "properties": { "Name": "罗马尼亚" }, "geometry": { "type": "Point", "coordinates": [ 25.65502323470389, 45.59254493883104 ] } },
{ "type": "Feature", "properties": { "Name": "波兰" }, "geometry": { "type": "Point", "coordinates": [ 18.53020214957775, 51.382341713705387 ] } },
{ "type": "Feature", "properties": { "Name": "斯洛伐克" }, "geometry": { "type": "Point", "coordinates": [ 18.839257922193241, 48.219603446188032 ] } },
{ "type": "Feature", "properties": { "Name": "捷克" }, "geometry": { "type": "Point", "coordinates": [ 14.57834876766813, 49.228262393420813 ] } },
{ "type": "Feature", "properties": { "Name": "希腊" }, "geometry": { "type": "Point", "coordinates": [ 21.536467396856779, 38.713205202686332 ] } },
{ "type": "Feature", "properties": { "Name": "黑山" }, "geometry": { "type": "Point", "coordinates": [ 19.14502447928966, 42.629196721587178 ] } },
{ "type": "Feature", "properties": { "Name": "马其顿" }, "geometry": { "type": "Point", "coordinates": [ 21.55103335933676, 41.369251218027763 ] } },
{ "type": "Feature", "properties": { "Name": "塞尔维亚" }, "geometry": { "type": "Point", "coordinates": [ 20.74270039409895, 43.756862977720822 ] } },
{ "type": "Feature", "properties": { "Name": "阿尔巴尼亚" }, "geometry": { "type": "Point", "coordinates": [ 20.079146733101268, 40.829701350669353 ] } },
{ "type": "Feature", "properties": { "Name": "波斯尼亚和黑塞哥维那" }, "geometry": { "type": "Point", "coordinates": [ 17.52646412779465, 43.656436086132338 ] } },
{ "type": "Feature", "properties": { "Name": "克罗地亚" }, "geometry": { "type": "Point", "coordinates": [ 16.019383950027159, 45.442339683542912 ] } },
{ "type": "Feature", "properties": { "Name": "斯洛文尼亚" }, "geometry": { "type": "Point", "coordinates": [ 14.611368170922461, 45.811057447310489 ] } },
{ "type": "Feature", "properties": { "Name": "梵蒂冈" }, "geometry": { "type": "Point", "coordinates": [ 12.45247303976544, 41.903041371383424 ] } },
{ "type": "Feature", "properties": { "Name": "意大利" }, "geometry": { "type": "Point", "coordinates": [ 12.443341600554159, 42.751909746067597 ] } },
{ "type": "Feature", "properties": { "Name": "奥地利" }, "geometry": { "type": "Point", "coordinates": [ 14.62428674359853, 47.316050794826012 ] } },
{ "type": "Feature", "properties": { "Name": "列支敦士登" }, "geometry": { "type": "Point", "coordinates": [ 9.546372783958944, 47.174673592804211 ] } },
{ "type": "Feature", "properties": { "Name": "瑞士" }, "geometry": { "type": "Point", "coordinates": [ 8.02275958397756, 46.546782643650687 ] } },
{ "type": "Feature", "properties": { "Name": "摩纳哥" }, "geometry": { "type": "Point", "coordinates": [ 7.420267398988287, 43.73673962219106 ] } },
{ "type": "Feature", "properties": { "Name": "安道尔" }, "geometry": { "type": "Point", "coordinates": [ 1.5945230331304, 42.546927745353422 ] } },
{ "type": "Feature", "properties": { "Name": "葡萄牙" }, "geometry": { "type": "Point", "coordinates": [ -7.938514120912444, 39.195282935152022 ] } },
{ "type": "Feature", "properties": { "Name": "西班牙" }, "geometry": { "type": "Point", "coordinates": [ -3.624523947735512, 40.236954533449392 ] } },
{ "type": "Feature", "properties": { "Name": "卢森堡" }, "geometry": { "type": "Point", "coordinates": [ 6.197534842935994, 49.758830238068029 ] } },
{ "type": "Feature", "properties": { "Name": "德国" }, "geometry": { "type": "Point", "coordinates": [ 10.125605300958309, 50.714147368533517 ] } },
{ "type": "Feature", "properties": { "Name": "比利时" }, "geometry": { "type": "Point", "coordinates": [ 4.77845066687479, 50.48378775318961 ] } },
{ "type": "Feature", "properties": { "Name": "荷兰" }, "geometry": { "type": "Point", "coordinates": [ 5.210625204805879, 51.725965638619009 ] } },
{ "type": "Feature", "properties": { "Name": "法国" }, "geometry": { "type": "Point", "coordinates": [ 2.708344645781324, 45.473410420195059 ] } },
{ "type": "Feature", "properties": { "Name": "爱尔兰" }, "geometry": { "type": "Point", "coordinates": [ -7.487639336373931, 53.073987300473263 ] } },
{ "type": "Feature", "properties": { "Name": "英国" }, "geometry": { "type": "Point", "coordinates": [ -0.947956108914653, 52.135478549793461 ] } },
{ "type": "Feature", "properties": { "Name": "冰岛" }, "geometry": { "type": "Point", "coordinates": [ -18.424210488420339, 64.213508059245981 ] } },
{ "type": "Feature", "properties": { "Name": "丹麦" }, "geometry": { "type": "Point", "coordinates": [ 9.435351261864952, 56.133050067479843 ] } },
{ "type": "Feature", "properties": { "Name": "挪威" }, "geometry": { "type": "Point", "coordinates": [ 8.407998229525347, 60.123672221688537 ] } },
{ "type": "Feature", "properties": { "Name": "瑞典" }, "geometry": { "type": "Point", "coordinates": [ 15.06112520135304, 63.512309064581892 ] } },
{ "type": "Feature", "properties": { "Name": "芬兰" }, "geometry": { "type": "Point", "coordinates": [ 26.117957796294121, 61.138694491474759 ] } },
{ "type": "Feature", "properties": { "Name": "摩尔多瓦" }, "geometry": { "type": "Point", "coordinates": [ 28.737107048858011, 47.202718466460631 ] } },
{ "type": "Feature", "properties": { "Name": "乌克兰" }, "geometry": { "type": "Point", "coordinates": [ 30.709620647289348, 48.281952390656294 ] } },
{ "type": "Feature", "properties": { "Name": "白俄罗斯" }, "geometry": { "type": "Point", "coordinates": [ 28.55129608753472, 53.217718353348161 ] } },
{ "type": "Feature", "properties": { "Name": "立陶宛" }, "geometry": { "type": "Point", "coordinates": [ 24.542746852224202, 54.707856571267122 ] } },
{ "type": "Feature", "properties": { "Name": "拉脱维亚" }, "geometry": { "type": "Point", "coordinates": [ 26.403788022734741, 56.685052013635143 ] } },
{ "type": "Feature", "properties": { "Name": "爱沙尼亚" }, "geometry": { "type": "Point", "coordinates": [ 26.17842306541645, 58.227766176223987 ] } },
{ "type": "Feature", "properties": { "Name": "俄罗斯" }, "geometry": { "type": "Point", "coordinates": [ 87.882948082111312, 61.191858402101303 ] } },
{ "type": "Feature", "properties": { "Name": "直布罗陀" }, "geometry": { "type": "Point", "coordinates": [ -5.424569534793435, 36.124826554517703 ] } },
{ "type": "Feature", "properties": { "Name": "香港(中国)" }, "geometry": { "type": "Point", "coordinates": [ 114.175299033971797, 22.2799623467053 ] } },
{ "type": "Feature", "properties": { "Name": "澳门(中国)" }, "geometry": { "type": "Point", "coordinates": [ 113.546117813111096, 22.202312160035252 ] } },
{ "type": "Feature", "properties": { "Name": "文莱" }, "geometry": { "type": "Point", "coordinates": [ 115.068544163390499, 4.978858712699809 ] } },
{ "type": "Feature", "properties": { "Name": "东帝汶" }, "geometry": { "type": "Point", "coordinates": [ 125.698117786318804, -8.942048776118346 ] } },
{ "type": "Feature", "properties": { "Name": "斯里兰卡" }, "geometry": { "type": "Point", "coordinates": [ 80.639369942712818, 7.478729888749193 ] } },
{ "type": "Feature", "properties": { "Name": "印度尼西亚" }, "geometry": { "type": "Point", "coordinates": [ 111.548122339982996, -1.476773535402575 ] } },
{ "type": "Feature", "properties": { "Name": "新加坡" }, "geometry": { "type": "Point", "coordinates": [ 103.955171400246101, 1.213346806818704 ] } },
{ "type": "Feature", "properties": { "Name": "马来西亚" }, "geometry": { "type": "Point", "coordinates": [ 102.163269502240297, 3.454370201485016 ] } },
{ "type": "Feature", "properties": { "Name": "马来西亚" }, "geometry": { "type": "Point", "coordinates": [ 113.220732126923096, 2.9341807886767 ] } },
{ "type": "Feature", "properties": { "Name": "菲律宾" }, "geometry": { "type": "Point", "coordinates": [ 120.547665949200393, 15.398945431999911 ] } },
{ "type": "Feature", "properties": { "Name": "吉尔吉斯坦" }, "geometry": { "type": "Point", "coordinates": [ 73.961870520444876, 41.479636889315387 ] } },
{ "type": "Feature", "properties": { "Name": "哈萨克斯坦" }, "geometry": { "type": "Point", "coordinates": [ 65.268815420026812, 47.434441085583117 ] } },
{ "type": "Feature", "properties": { "Name": "塔吉克斯坦" }, "geometry": { "type": "Point", "coordinates": [ 69.28948549723296, 38.470175143116208 ] } },
{ "type": "Feature", "properties": { "Name": "乌兹别克斯坦" }, "geometry": { "type": "Point", "coordinates": [ 64.257714945725837, 40.484755856668933 ] } },
{ "type": "Feature", "properties": { "Name": "土库曼斯坦" }, "geometry": { "type": "Point", "coordinates": [ 57.414992805711293, 39.262327130061209 ] } },
{ "type": "Feature", "properties": { "Name": "阿塞拜疆" }, "geometry": { "type": "Point", "coordinates": [ 47.415672685290282, 39.883849269296057 ] } },
{ "type": "Feature", "properties": { "Name": "亚美尼亚" }, "geometry": { "type": "Point", "coordinates": [ 44.364785170117052, 40.155310087160849 ] } },
{ "type": "Feature", "properties": { "Name": "格鲁吉亚" }, "geometry": { "type": "Point", "coordinates": [ 43.69116855538568, 41.959698489890378 ] } },
{ "type": "Feature", "properties": { "Name": "土耳其" }, "geometry": { "type": "Point", "coordinates": [ 35.662737834727302, 38.236628337801157 ] } },
{ "type": "Feature", "properties": { "Name": "塞浦路斯" }, "geometry": { "type": "Point", "coordinates": [ 33.340940862852008, 35.048034675492239 ] } },
{ "type": "Feature", "properties": { "Name": "巴勒斯坦" }, "geometry": { "type": "Point", "coordinates": [ 35.337130209314573, 31.891365484514811 ] } },
{ "type": "Feature", "properties": { "Name": "以色列" }, "geometry": { "type": "Point", "coordinates": [ 34.894488967376432, 30.517141316834731 ] } },
{ "type": "Feature", "properties": { "Name": "约旦" }, "geometry": { "type": "Point", "coordinates": [ 36.127330014951028, 30.4829873214772 ] } },
{ "type": "Feature", "properties": { "Name": "黎巴嫩" }, "geometry": { "type": "Point", "coordinates": [ 35.82876848653035, 33.919690293343763 ] } },
{ "type": "Feature", "properties": { "Name": "叙利亚" }, "geometry": { "type": "Point", "coordinates": [ 38.799473998716309, 34.779122993931132 ] } },
{ "type": "Feature", "properties": { "Name": "巴林" }, "geometry": { "type": "Point", "coordinates": [ 50.531930915097973, 26.119769447939579 ] } },
{ "type": "Feature", "properties": { "Name": "卡塔尔" }, "geometry": { "type": "Point", "coordinates": [ 51.15016769066353, 25.19097583506516 ] } },
{ "type": "Feature", "properties": { "Name": "阿拉伯联合酋长国" }, "geometry": { "type": "Point", "coordinates": [ 53.972094412683937, 23.367020714900409 ] } },
{ "type": "Feature", "properties": { "Name": "阿曼" }, "geometry": { "type": "Point", "coordinates": [ 56.544304424698829, 20.210627766565828 ] } },
{ "type": "Feature", "properties": { "Name": "也门" }, "geometry": { "type": "Point", "coordinates": [ 47.270235515220961, 15.420555427385271 ] } },
{ "type": "Feature", "properties": { "Name": "沙特阿拉伯" }, "geometry": { "type": "Point", "coordinates": [ 43.216448072581393, 22.77276211739073 ] } },
{ "type": "Feature", "properties": { "Name": "科威特" }, "geometry": { "type": "Point", "coordinates": [ 48.029328561624617, 29.282690428184011 ] } },
{ "type": "Feature", "properties": { "Name": "伊拉克" }, "geometry": { "type": "Point", "coordinates": [ 43.860887683505467, 32.423799555759523 ] } },
{ "type": "Feature", "properties": { "Name": "伊朗" }, "geometry": { "type": "Point", "coordinates": [ 53.757867766320167, 32.590188778489477 ] } },
{ "type": "Feature", "properties": { "Name": "阿富汗" }, "geometry": { "type": "Point", "coordinates": [ 65.799110837876341, 33.892324502317777 ] } },
{ "type": "Feature", "properties": { "Name": "巴基斯坦" }, "geometry": { "type": "Point", "coordinates": [ 69.468501687487702, 29.339845756361679 ] } },
{ "type": "Feature", "properties": { "Name": "印度" }, "geometry": { "type": "Point", "coordinates": [ 78.842353558777063, 20.539230297556109 ] } },
{ "type": "Feature", "properties": { "Name": "尼泊尔" }, "geometry": { "type": "Point", "coordinates": [ 84.011325430808114, 28.193555434576169 ] } },
{ "type": "Feature", "properties": { "Name": "锡金" }, "geometry": { "type": "Point", "coordinates": [ 88.399066696247587, 27.538704395307729 ] } },
{ "type": "Feature", "properties": { "Name": "不丹" }, "geometry": { "type": "Point", "coordinates": [ 90.576028680394913, 27.496301702879911 ] } },
{ "type": "Feature", "properties": { "Name": "孟加拉" }, "geometry": { "type": "Point", "coordinates": [ 89.555035449865557, 24.28464895792062 ] } },
{ "type": "Feature", "properties": { "Name": "缅甸" }, "geometry": { "type": "Point", "coordinates": [ 94.452874068567056, 21.81516398382335 ] } },
{ "type": "Feature", "properties": { "Name": "泰国" }, "geometry": { "type": "Point", "coordinates": [ 100.920235337794196, 15.90439918795181 ] } },
{ "type": "Feature", "properties": { "Name": "柬埔寨" }, "geometry": { "type": "Point", "coordinates": [ 104.809858299727793, 12.30072309859495 ] } },
{ "type": "Feature", "properties": { "Name": "老挝" }, "geometry": { "type": "Point", "coordinates": [ 102.599556483084498, 19.825685499563129 ] } },
{ "type": "Feature", "properties": { "Name": "越南" }, "geometry": { "type": "Point", "coordinates": [ 108.2927290453176, 14.31958289189042 ] } },
{ "type": "Feature", "properties": { "Name": "日本" }, "geometry": { "type": "Point", "coordinates": [ 138.244999961633312, 35.971247412721169 ] } },
{ "type": "Feature", "properties": { "Name": "韩国" }, "geometry": { "type": "Point", "coordinates": [ 127.7610002166941, 36.501550710913953 ] } },
{ "type": "Feature", "properties": { "Name": "朝鲜" }, "geometry": { "type": "Point", "coordinates": [ 126.441218954310202, 39.396792707782623 ] } },
{ "type": "Feature", "properties": { "Name": "蒙古" }, "geometry": { "type": "Point", "coordinates": [ 103.562881934458602, 46.421161463956103 ] } },
{ "type": "Feature", "properties": { "Name": "台湾(中国)" }, "geometry": { "type": "Point", "coordinates": [ 120.740347852948602, 23.63733133304537 ] } },
{ "type": "Feature", "properties": { "Name": "中国" }, "geometry": { "type": "Point", "coordinates": [ 101.185358315246305, 35.160705280859311 ] } }
]
}
